{
"type": "FeatureCollection",
"name": "Apr_losrios",
"crs": { "type": "name", "properties": { "name": "urn:ogc:def:crs:OGC:1.3:CRS84" } },
"features": [
{ "type": "Feature", "properties": { "OBJECTID": 1.0, "Cod_APR": 0.0, "NR": 14.0, "Region": "Región de Los Ríos", "Provincia": "Valdivia", "Comuna": "Valdivia", "Servicio": "COMITÉ", "Nombre": "CABO BLANCO", "Año": "2015", "Arranques": 87.0, "Estado": "SEMICONCENTRADO", "Fondos": "Sectorial", "Ben_est": 348.0, "ESTE": 136748.0, "NORTE": 5588019.0, "CLASE_SUEL": 0 }, "geometry": { "type": "Point", "coordinates": [ -73.241270997999948, -39.780269368999939, 0.0 ] } },
{ "type": "Feature", "properties": { "OBJECTID": 4.0, "Cod_APR": 0.0, "NR": 14.0, "Region": "Región de Los Ríos", "Provincia": "Valdivia", "Comuna": "Panguipulli", "Servicio": "COMITÉ", "Nombre": "CAMINO A CHAUQUÉN", "Año": "2016", "Arranques": 103.0, "Estado": "SEMICONCENTRADO", "Fondos": "Sectorial", "Ben_est": 412.0, "ESTE": 232853.0, "NORTE": 5614568.0, "CLASE_SUEL": 0 }, "geometry": { "type": "Point", "coordinates": [ -72.110267687999965, -39.576993812999945, 0.0 ] } },
{ "type": "Feature", "properties": { "OBJECTID": 6.0, "Cod_APR": 0.0, "NR": 14.0, "Region": "Región de Los Ríos", "Provincia": "Valdivia", "Comuna": "Panguipulli", "Servicio": "COMITÉ", "Nombre": "CARICUICUI", "Año": "2015", "Arranques": 76.0, "Estado": "SEMICONCENTRADO", "Fondos": "Sectorial", "Ben_est": 304.0, "ESTE": 214528.0, "NORTE": 5614740.0, "CLASE_SUEL": 0 }, "geometry": { "type": "Point", "coordinates": [ -72.323211838999953, -39.569549022999979, 0.0 ] } },
{ "type": "Feature", "properties": { "OBJECTID": 15.0, "Cod_APR": 0.0, "NR": 14.0, "Region": "Región de Los Ríos", "Provincia": "Valdivia", "Comuna": "Panguipulli", "Servicio": "COMITÉ", "Nombre": "COZ COZ", "Año": "2016", "Arranques": 209.0, "Estado": "SEMICONCENTRADO", "Fondos": "Sectorial", "Ben_est": 836.0, "ESTE": 217486.0, "NORTE": 5608865.0, "CLASE_SUEL": 0 }, "geometry": { "type": "Point", "coordinates": [ -72.291339753999978, -39.623374637999973, 0.0 ] } },
{ "type": "Feature", "properties": { "OBJECTID": 16.0, "Cod_APR": 0.0, "NR": 14.0, "Region": "Región de Los Ríos", "Provincia": "Ranco", "Comuna": "La Unión", "Servicio": "COMITÉ", "Nombre": "CUDICO", "Año": "2015", "Arranques": 80.0, "Estado": "SEMICONCENTRADO", "Fondos": "Sectorial", "Ben_est": 320.0, "ESTE": 149163.0, "NORTE": 5534718.0, "CLASE_SUEL": 0 }, "geometry": { "type": "Point", "coordinates": [ -73.125470779999944, -40.264460688999975, 0.0 ] } },
{ "type": "Feature", "properties": { "OBJECTID": 21.0, "Cod_APR": 0.0, "NR": 14.0, "Region": "Región de Los Ríos", "Provincia": "Valdivia", "Comuna": "Paillaco", "Servicio": "COMITÉ", "Nombre": "EL MAITEN", "Año": "2016", "Arranques": 49.0, "Estado": "SEMICONCENTRADO", "Fondos": "Sectorial", "Ben_est": 196.0, "ESTE": 186627.0, "NORTE": 5557480.0, "CLASE_SUEL": 0 }, "geometry": { "type": "Point", "coordinates": [ -72.674781621999955, -40.074671931999944, 0.0 ] } },
{ "type": "Feature", "properties": { "OBJECTID": 30.0, "Cod_APR": 0.0, "NR": 14.0, "Region": "Región de Los Ríos", "Provincia": "Valdivia", "Comuna": "Panguipulli", "Servicio": "COMITÉ", "Nombre": "HUITAG", "Año": "2016", "Arranques": 111.0, "Estado": "SEMICONCENTRADO", "Fondos": "Sectorial", "Ben_est": 444.0, "ESTE": 218029.0, "NORTE": 5621489.0, "CLASE_SUEL": 0 }, "geometry": { "type": "Point", "coordinates": [ -72.279655155999933, -39.509990133999963, 0.0 ] } },
{ "type": "Feature", "properties": { "OBJECTID": 40.0, "Cod_APR": 0.0, "NR": 14.0, "Region": "Región de Los Ríos", "Provincia": "Ranco", "Comuna": "La Unión", "Servicio": "COMITÉ", "Nombre": "LAS PATAGUAS DE PILMAIQUÉN", "Año": "2015", "Arranques": 83.0, "Estado": "SEMICONCENTRADO", "Fondos": "Sectorial", "Ben_est": 332.0, "ESTE": 179662.0, "NORTE": 5535745.0, "CLASE_SUEL": 0 }, "geometry": { "type": "Point", "coordinates": [ -72.767087878999973, -40.267457333999971, 0.0 ] } },
{ "type": "Feature", "properties": { "OBJECTID": 42.0, "Cod_APR": 0.0, "NR": 14.0, "Region": "Región de Los Ríos", "Provincia": "Ranco", "Comuna": "Río Bueno", "Servicio": "COMITÉ", "Nombre": "LOS COPIHUES", "Año": "2015", "Arranques": 73.0, "Estado": "SEMICONCENTRADO", "Fondos": "Sectorial", "Ben_est": 292.0, "ESTE": 192881.0, "NORTE": 5530270.0, "CLASE_SUEL": 0 }, "geometry": { "type": "Point", "coordinates": [ -72.614565881999965, -40.321640287999969, 0.0 ] } },
{ "type": "Feature", "properties": { "OBJECTID": 44.0, "Cod_APR": 0.0, "NR": 14.0, "Region": "Región de Los Ríos", "Provincia": "Valdivia", "Comuna": "Panguipulli", "Servicio": "COMITÉ", "Nombre": "LUMACO DE PANGUIPULLI", "Año": "2015", "Arranques": 117.0, "Estado": "SEMICONCENTRADO", "Fondos": "Sectorial", "Ben_est": 468.0, "ESTE": 205028.0, "NORTE": 5598935.0, "CLASE_SUEL": 0 }, "geometry": { "type": "Point", "coordinates": [ -72.440662288999988, -39.708488996999961, 0.0 ] } },
{ "type": "Feature", "properties": { "OBJECTID": 45.0, "Cod_APR": 0.0, "NR": 14.0, "Region": "Región de Los Ríos", "Provincia": "Valdivia", "Comuna": "Paillaco", "Servicio": "COMITÉ", "Nombre": "LUMACO PAILLACO", "Año": "2016", "Arranques": 55.0, "Estado": "SEMICONCENTRADO", "Fondos": "Sectorial", "Ben_est": 220.0, "ESTE": 176394.0, "NORTE": 5563633.0, "CLASE_SUEL": 0 }, "geometry": { "type": "Point", "coordinates": [ -72.791458631999944, -40.015490782999962, 0.0 ] } },
{ "type": "Feature", "properties": { "OBJECTID": 50.0, "Cod_APR": 0.0, "NR": 14.0, "Region": "Región de Los Ríos", "Provincia": "Valdivia", "Comuna": "Los Lagos", "Servicio": "COMITÉ", "Nombre": "PANCUL", "Año": "2015", "Arranques": 167.0, "Estado": "SEMICONCENTRADO", "Fondos": "Sectorial", "Ben_est": 668.0, "ESTE": 175499.0, "NORTE": 5581706.0, "CLASE_SUEL": 0 }, "geometry": { "type": "Point", "coordinates": [ -72.792936080999937, -39.852677385999982, 0.0 ] } },
{ "type": "Feature", "properties": { "OBJECTID": 54.0, "Cod_APR": 0.0, "NR": 14.0, "Region": "Región de Los Ríos", "Provincia": "Ranco", "Comuna": "La Unión", "Servicio": "COMITÉ", "Nombre": "PILMAIQUÉN TRAIGUEN", "Año": "2015", "Arranques": 89.0, "Estado": "SEMICONCENTRADO", "Fondos": "Sectorial", "Ben_est": 356.0, "ESTE": 186841.0, "NORTE": 5540154.0, "CLASE_SUEL": 0 }, "geometry": { "type": "Point", "coordinates": [ -72.680681386999936, -40.230534889999944, 0.0 ] } },
{ "type": "Feature", "properties": { "OBJECTID": 55.0, "Cod_APR": 0.0, "NR": 14.0, "Region": "Región de Los Ríos", "Provincia": "Ranco", "Comuna": "Río Bueno", "Servicio": "COMITÉ", "Nombre": "PONHUIPA", "Año": "2015", "Arranques": 65.0, "Estado": "SEMICONCENTRADO", "Fondos": "Sectorial", "Ben_est": 260.0, "ESTE": 182488.0, "NORTE": 5503365.0, "CLASE_SUEL": 0 }, "geometry": { "type": "Point", "coordinates": [ -72.750070049999977, -40.559627502999945, 0.0 ] } },
{ "type": "Feature", "properties": { "OBJECTID": 63.0, "Cod_APR": 0.0, "NR": 14.0, "Region": "Región de Los Ríos", "Provincia": "Valdivia", "Comuna": "Paillaco", "Servicio": "COMITÉ", "Nombre": "SANTA ROSA GRANDE", "Año": "2016", "Arranques": 103.0, "Estado": "SEMICONCENTRADO", "Fondos": "Sectorial", "Ben_est": 412.0, "ESTE": 194778.0, "NORTE": 5550760.0, "CLASE_SUEL": 0 }, "geometry": { "type": "Point", "coordinates": [ -72.582549665999977, -40.13809282699998, 0.0 ] } },
{ "type": "Feature", "properties": { "OBJECTID": 64.0, "Cod_APR": 0.0, "NR": 14.0, "Region": "Región de Los Ríos", "Provincia": "Valdivia", "Comuna": "Paillaco", "Servicio": "COMITÉ", "Nombre": "STA. ROSA CHICA", "Año": "2016", "Arranques": 116.0, "Estado": "SEMICONCENTRADO", "Fondos": "Sectorial", "Ben_est": 464.0, "ESTE": 193727.0, "NORTE": 5545609.0, "CLASE_SUEL": 0 }, "geometry": { "type": "Point", "coordinates": [ -72.597303248999935, -40.184026608999943, 0.0 ] } },
{ "type": "Feature", "properties": { "OBJECTID": 1655.0, "Cod_APR": 14010109.0, "NR": 14.0, "Region": "Región de Los Ríos", "Provincia": "Valdivia", "Comuna": "Valdivia", "Servicio": "COMITÉ", "Nombre": "PISHUINCO", "Año": "2011", "Arranques": 66.0, "Estado": "SEMICONCENTRADO", "Fondos": "Sectorial", "Ben_est": 264.0, "ESTE": 152859.0, "NORTE": 5585878.0, "CLASE_SUEL": 0 }, "geometry": { "type": "Point", "coordinates": [ -73.054746448999936, -39.806230524999933, 0.0 ] } },
{ "type": "Feature", "properties": { "OBJECTID": 1656.0, "Cod_APR": 14010101.0, "NR": 14.0, "Region": "Región de Los Ríos", "Provincia": "Valdivia", "Comuna": "Valdivia", "Servicio": "COMITÉ", "Nombre": "CURIÑANCO", "Año": "1997", "Arranques": 357.0, "Estado": "CONCENTRADO", "Fondos": null, "Ben_est": 1428.0, "ESTE": 123303.0, "NORTE": 5593145.0, "CLASE_SUEL": 0 }, "geometry": { "type": "Point", "coordinates": [ -73.394891981999933, -39.728382419999946, 0.0 ] } },
{ "type": "Feature", "properties": { "OBJECTID": 1657.0, "Cod_APR": 14010102.0, "NR": 14.0, "Region": "Región de Los Ríos", "Provincia": "Valdivia", "Comuna": "Valdivia", "Servicio": "COMITÉ", "Nombre": "HUELLELHUE", "Año": "1981", "Arranques": 58.0, "Estado": "CONCENTRADO", "Fondos": null, "Ben_est": 232.0, "ESTE": 146855.0, "NORTE": 5587066.0, "CLASE_SUEL": 0 }, "geometry": { "type": "Point", "coordinates": [ -73.124067116999981, -39.793084410999938, 0.0 ] } },
{ "type": "Feature", "properties": { "OBJECTID": 1658.0, "Cod_APR": 14010103.0, "NR": 14.0, "Region": "Región de Los Ríos", "Provincia": "Valdivia", "Comuna": "Valdivia", "Servicio": "COMITÉ", "Nombre": "LAS GAVIOTAS", "Año": "2002", "Arranques": 100.0, "Estado": "CONCENTRADO", "Fondos": null, "Ben_est": 400.0, "ESTE": 142024.0, "NORTE": 5578108.0, "CLASE_SUEL": 0 }, "geometry": { "type": "Point", "coordinates": [ -73.185234630999958, -39.871563987999934, 0.0 ] } },
{ "type": "Feature", "properties": { "OBJECTID": 1659.0, "Cod_APR": 14010104.0, "NR": 14.0, "Region": "Región de Los Ríos", "Provincia": "Valdivia", "Comuna": "Valdivia", "Servicio": "COMITÉ", "Nombre": "NIEBLA-LOS MOLINOS", "Año": "1988", "Arranques": 980.0, "Estado": "CONCENTRADO", "Fondos": null, "Ben_est": 3920.0, "ESTE": 124346.0, "NORTE": 5579127.0, "CLASE_SUEL": 0 }, "geometry": { "type": "Point", "coordinates": [ -73.390771843999971, -39.85477515499997, 0.0 ] } },
{ "type": "Feature", "properties": { "OBJECTID": 1660.0, "Cod_APR": 14010105.0, "NR": 14.0, "Region": "Región de Los Ríos", "Provincia": "Valdivia", "Comuna": "Valdivia", "Servicio": "COMITÉ", "Nombre": "PUNUCAPA", "Año": "1994", "Arranques": 54.0, "Estado": "CONCENTRADO", "Fondos": null, "Ben_est": 216.0, "ESTE": 134132.0, "NORTE": 5590117.0, "CLASE_SUEL": 0 }, "geometry": { "type": "Point", "coordinates": [ -73.270568133999973, -39.760300163999943, 0.0 ] } },
{ "type": "Feature", "properties": { "OBJECTID": 1661.0, "Cod_APR": 14010106.0, "NR": 14.0, "Region": "Región de Los Ríos", "Provincia": "Valdivia", "Comuna": "Valdivia", "Servicio": "COMITÉ", "Nombre": "SAN IGNACIO-PLAYA ROSADA", "Año": "2002", "Arranques": 168.0, "Estado": "CONCENTRADO", "Fondos": null, "Ben_est": 672.0, "ESTE": 123207.0, "NORTE": 5581664.0, "CLASE_SUEL": 0 }, "geometry": { "type": "Point", "coordinates": [ -73.402589220999971, -39.831480036999949, 0.0 ] } },
{ "type": "Feature", "properties": { "OBJECTID": 1662.0, "Cod_APR": 14010107.0, "NR": 14.0, "Region": "Región de Los Ríos", "Provincia": "Valdivia", "Comuna": "Valdivia", "Servicio": "COMITÉ", "Nombre": "TRES ESPINOS", "Año": "2002", "Arranques": 136.0, "Estado": "CONCENTRADO", "Fondos": null, "Ben_est": 544.0, "ESTE": 125936.0, "NORTE": 5578074.0, "CLASE_SUEL": 0 }, "geometry": { "type": "Point", "coordinates": [ -73.372840028999974, -39.864936416999967, 0.0 ] } },
{ "type": "Feature", "properties": { "OBJECTID": 1663.0, "Cod_APR": 14010108.0, "NR": 14.0, "Region": "Región de Los Ríos", "Provincia": "Valdivia", "Comuna": "Valdivia", "Servicio": "COMITÉ", "Nombre": "VILLA CAYUMAPU", "Año": "2008", "Arranques": 139.0, "Estado": "CONCENTRADO", "Fondos": null, "Ben_est": 556.0, "ESTE": 147822.0, "NORTE": 5593973.0, "CLASE_SUEL": 0 }, "geometry": { "type": "Point", "coordinates": [ -73.109104369999955, -39.731412128999978, 0.0 ] } },
{ "type": "Feature", "properties": { "OBJECTID": 1664.0, "Cod_APR": 14010201.0, "NR": 14.0, "Region": "Región de Los Ríos", "Provincia": "Valdivia", "Comuna": "Corral", "Servicio": "COMITÉ", "Nombre": "AMARGO-SAN CARLOS", "Año": "1981", "Arranques": 527.0, "Estado": "CONCENTRADO", "Fondos": null, "Ben_est": 2108.0, "ESTE": 120685.0, "NORTE": 5578014.0, "CLASE_SUEL": 0 }, "geometry": { "type": "Point", "coordinates": [ -73.434087459999944, -39.863147052999977, 0.0 ] } },
{ "type": "Feature", "properties": { "OBJECTID": 1665.0, "Cod_APR": 14010202.0, "NR": 14.0, "Region": "Región de Los Ríos", "Provincia": "Valdivia", "Comuna": "Corral", "Servicio": "COMITÉ", "Nombre": "HUAPE", "Año": "2004", "Arranques": 53.0, "Estado": "CONCENTRADO", "Fondos": null, "Ben_est": 212.0, "ESTE": 112958.0, "NORTE": 5571310.0, "CLASE_SUEL": 0 }, "geometry": { "type": "Point", "coordinates": [ -73.528119686999958, -39.919876298999952, 0.0 ] } },
{ "type": "Feature", "properties": { "OBJECTID": 1666.0, "Cod_APR": 14010203.0, "NR": 14.0, "Region": "Región de Los Ríos", "Provincia": "Valdivia", "Comuna": "Corral", "Servicio": "COMITÉ", "Nombre": "ISLA DEL REY", "Año": "2009", "Arranques": 147.0, "Estado": "CONCENTRADO", "Fondos": null, "Ben_est": 588.0, "ESTE": 127195.0, "NORTE": 5576967.0, "CLASE_SUEL": 0 }, "geometry": { "type": "Point", "coordinates": [ -73.358793008999953, -39.875435048999975, 0.0 ] } },
{ "type": "Feature", "properties": { "OBJECTID": 1667.0, "Cod_APR": 14010204.0, "NR": 14.0, "Region": "Región de Los Ríos", "Provincia": "Valdivia", "Comuna": "Corral", "Servicio": "COMITÉ", "Nombre": "ISLA MANCERA", "Año": "1999", "Arranques": 65.0, "Estado": "CONCENTRADO", "Fondos": null, "Ben_est": 260.0, "ESTE": 124455.0, "NORTE": 5575155.0, "CLASE_SUEL": 0 }, "geometry": { "type": "Point", "coordinates": [ -73.391780887999971, -39.890505784999959, 0.0 ] } },
{ "type": "Feature", "properties": { "OBJECTID": 1668.0, "Cod_APR": 14010205.0, "NR": 14.0, "Region": "Región de Los Ríos", "Provincia": "Valdivia", "Comuna": "Corral", "Servicio": "COMITÉ", "Nombre": "LA AGUADA", "Año": "1987", "Arranques": 178.0, "Estado": "CONCENTRADO", "Fondos": null, "Ben_est": 712.0, "ESTE": 122264.0, "NORTE": 5574386.0, "CLASE_SUEL": 0 }, "geometry": { "type": "Point", "coordinates": [ -73.417776162999985, -39.89644153699993, 0.0 ] } },
{ "type": "Feature", "properties": { "OBJECTID": 1669.0, "Cod_APR": 14010301.0, "NR": 14.0, "Region": "Región de Los Ríos", "Provincia": "Valdivia", "Comuna": "Lanco", "Servicio": "COMITÉ", "Nombre": "AYLIN", "Año": "2002", "Arranques": 60.0, "Estado": "CONCENTRADO", "Fondos": null, "Ben_est": 240.0, "ESTE": 191612.0, "NORTE": 5619491.0, "CLASE_SUEL": 0 }, "geometry": { "type": "Point", "coordinates": [ -72.587303642999984, -39.518893573999947, 0.0 ] } },
{ "type": "Feature", "properties": { "OBJECTID": 1670.0, "Cod_APR": 14010302.0, "NR": 14.0, "Region": "Región de Los Ríos", "Provincia": "Valdivia", "Comuna": "Lanco", "Servicio": "COOPERATIVA", "Nombre": "MALALHUE", "Año": "1982", "Arranques": 1250.0, "Estado": "CONCENTRADO", "Fondos": null, "Ben_est": 5000.0, "ESTE": 198538.0, "NORTE": 5616757.0, "CLASE_SUEL": 0 }, "geometry": { "type": "Point", "coordinates": [ -72.508119509999972, -39.545939095999984, 0.0 ] } },
{ "type": "Feature", "properties": { "OBJECTID": 1671.0, "Cod_APR": 14010401.0, "NR": 14.0, "Region": "Región de Los Ríos", "Provincia": "Valdivia", "Comuna": "Los Lagos", "Servicio": "COMITÉ", "Nombre": "ANTILHUE", "Año": "1979", "Arranques": 313.0, "Estado": "CONCENTRADO", "Fondos": null, "Ben_est": 1252.0, "ESTE": 161215.0, "NORTE": 5586113.0, "CLASE_SUEL": 0 }, "geometry": { "type": "Point", "coordinates": [ -72.957245570999987, -39.807485633999931, 0.0 ] } },
{ "type": "Feature", "properties": { "OBJECTID": 1672.0, "Cod_APR": 14010402.0, "NR": 14.0, "Region": "Región de Los Ríos", "Provincia": "Valdivia", "Comuna": "Los Lagos", "Servicio": "COMITÉ", "Nombre": "FOLILCO (LOS LAGOS)", "Año": "1979", "Arranques": 153.0, "Estado": "CONCENTRADO", "Fondos": null, "Ben_est": 612.0, "ESTE": 186291.0, "NORTE": 5580111.0, "CLASE_SUEL": 0 }, "geometry": { "type": "Point", "coordinates": [ -72.667801312999984, -39.871068290999972, 0.0 ] } },
{ "type": "Feature", "properties": { "OBJECTID": 1673.0, "Cod_APR": 14010403.0, "NR": 14.0, "Region": "Región de Los Ríos", "Provincia": "Valdivia", "Comuna": "Los Lagos", "Servicio": "COMITÉ", "Nombre": "QUILQUILCO", "Año": "2003", "Arranques": 120.0, "Estado": "CONCENTRADO", "Fondos": null, "Ben_est": 480.0, "ESTE": 194534.0, "NORTE": 5576289.0, "CLASE_SUEL": 0 }, "geometry": { "type": "Point", "coordinates": [ -72.573391668999989, -39.908443321999982, 0.0 ] } },
{ "type": "Feature", "properties": { "OBJECTID": 1674.0, "Cod_APR": 14010404.0, "NR": 14.0, "Region": "Región de Los Ríos", "Provincia": "Valdivia", "Comuna": "Los Lagos", "Servicio": "COMITÉ", "Nombre": "RIÑIHUE", "Año": "1997", "Arranques": 57.0, "Estado": "CONCENTRADO", "Fondos": null, "Ben_est": 228.0, "ESTE": 208173.0, "NORTE": 5585380.0, "CLASE_SUEL": 0 }, "geometry": { "type": "Point", "coordinates": [ -72.410057544999972, -39.831483653999953, 0.0 ] } },
{ "type": "Feature", "properties": { "OBJECTID": 1675.0, "Cod_APR": 14010405.0, "NR": 14.0, "Region": "Región de Los Ríos", "Provincia": "Valdivia", "Comuna": "Los Lagos", "Servicio": "COMITÉ", "Nombre": "USTARITZ", "Año": "2002", "Arranques": 97.0, "Estado": "CONCENTRADO", "Fondos": null, "Ben_est": 388.0, "ESTE": 187212.0, "NORTE": 5590813.0, "CLASE_SUEL": 0 }, "geometry": { "type": "Point", "coordinates": [ -72.651949161999937, -39.775178781999955, 0.0 ] } },
{ "type": "Feature", "properties": { "OBJECTID": 1676.0, "Cod_APR": 14010501.0, "NR": 14.0, "Region": "Región de Los Ríos", "Provincia": "Valdivia", "Comuna": "Máfil", "Servicio": "COMITÉ", "Nombre": "RUNCA-LINGUENTO", "Año": "2006", "Arranques": 125.0, "Estado": "CONCENTRADO", "Fondos": null, "Ben_est": 500.0, "ESTE": 168177.0, "NORTE": 5596430.0, "CLASE_SUEL": 0 }, "geometry": { "type": "Point", "coordinates": [ -72.870896953999988, -39.717483750999975, 0.0 ] } },
{ "type": "Feature", "properties": { "OBJECTID": 1677.0, "Cod_APR": 14010601.0, "NR": 14.0, "Region": "Región de Los Ríos", "Provincia": "Valdivia", "Comuna": "Mariquina", "Servicio": "COMITÉ", "Nombre": "CIRUELOS-DOLLINCO", "Año": "1996", "Arranques": 276.0, "Estado": "CONCENTRADO", "Fondos": null, "Ben_est": 1104.0, "ESTE": 167129.0, "NORTE": 5615894.0, "CLASE_SUEL": 0 }, "geometry": { "type": "Point", "coordinates": [ -72.87331186199998, -39.542100285999936, 0.0 ] } },
{ "type": "Feature", "properties": { "OBJECTID": 1678.0, "Cod_APR": 14010602.0, "NR": 14.0, "Region": "Región de Los Ríos", "Provincia": "Valdivia", "Comuna": "Mariquina", "Servicio": "COMITÉ", "Nombre": "EL YECO", "Año": "2002", "Arranques": 48.0, "Estado": "CONCENTRADO", "Fondos": null, "Ben_est": 192.0, "ESTE": 143084.0, "NORTE": 5626951.0, "CLASE_SUEL": 0 }, "geometry": { "type": "Point", "coordinates": [ -73.146519567999974, -39.43307996599998, 0.0 ] } },
{ "type": "Feature", "properties": { "OBJECTID": 1679.0, "Cod_APR": 14010603.0, "NR": 14.0, "Region": "Región de Los Ríos", "Provincia": "Valdivia", "Comuna": "Mariquina", "Servicio": "COMITÉ", "Nombre": "ESTACION MARIQUINA", "Año": "1981", "Arranques": 196.0, "Estado": "CONCENTRADO", "Fondos": null, "Ben_est": 784.0, "ESTE": 162289.0, "NORTE": 5613239.0, "CLASE_SUEL": 0 }, "geometry": { "type": "Point", "coordinates": [ -72.930855831999963, -39.56407769499998, 0.0 ] } },
{ "type": "Feature", "properties": { "OBJECTID": 1680.0, "Cod_APR": 14010604.0, "NR": 14.0, "Region": "Región de Los Ríos", "Provincia": "Valdivia", "Comuna": "Mariquina", "Servicio": "COMITÉ", "Nombre": "LINGUENTO", "Año": "2002", "Arranques": 103.0, "Estado": "CONCENTRADO", "Fondos": null, "Ben_est": 412.0, "ESTE": 153420.0, "NORTE": 5608867.0, "CLASE_SUEL": 0 }, "geometry": { "type": "Point", "coordinates": [ -73.036133709999945, -39.599838644999977, 0.0 ] } },
{ "type": "Feature", "properties": { "OBJECTID": 1681.0, "Cod_APR": 14010605.0, "NR": 14.0, "Region": "Región de Los Ríos", "Provincia": "Valdivia", "Comuna": "Mariquina", "Servicio": "COMITÉ", "Nombre": "MEHUÍN", "Año": "1980", "Arranques": 657.0, "Estado": "CONCENTRADO", "Fondos": null, "Ben_est": 2628.0, "ESTE": 137473.0, "NORTE": 5626787.0, "CLASE_SUEL": 0 }, "geometry": { "type": "Point", "coordinates": [ -73.211631238999985, -39.432213520999937, 0.0 ] } },
{ "type": "Feature", "properties": { "OBJECTID": 1682.0, "Cod_APR": 14010606.0, "NR": 14.0, "Region": "Región de Los Ríos", "Provincia": "Valdivia", "Comuna": "Mariquina", "Servicio": "COMITÉ", "Nombre": "MEHUÍN BAJO", "Año": "2002", "Arranques": 35.0, "Estado": "CONCENTRADO", "Fondos": null, "Ben_est": 140.0, "ESTE": 137175.0, "NORTE": 5625095.0, "CLASE_SUEL": 0 }, "geometry": { "type": "Point", "coordinates": [ -73.216002641999978, -39.447292929999946, 0.0 ] } },
{ "type": "Feature", "properties": { "OBJECTID": 1683.0, "Cod_APR": 14010607.0, "NR": 14.0, "Region": "Región de Los Ríos", "Provincia": "Valdivia", "Comuna": "Mariquina", "Servicio": "COMITÉ", "Nombre": "MISSISSIPPI", "Año": "1998", "Arranques": 82.0, "Estado": "CONCENTRADO", "Fondos": null, "Ben_est": 328.0, "ESTE": 136239.0, "NORTE": 5624419.0, "CLASE_SUEL": 0 }, "geometry": { "type": "Point", "coordinates": [ -73.227219165999941, -39.452973066999959, 0.0 ] } },
{ "type": "Feature", "properties": { "OBJECTID": 1684.0, "Cod_APR": 14010608.0, "NR": 14.0, "Region": "Región de Los Ríos", "Provincia": "Valdivia", "Comuna": "Mariquina", "Servicio": "COMITÉ", "Nombre": "PELCHUQUÍN", "Año": "1979", "Arranques": 284.0, "Estado": "CONCENTRADO", "Fondos": null, "Ben_est": 1136.0, "ESTE": 150044.0, "NORTE": 5605870.0, "CLASE_SUEL": 0 }, "geometry": { "type": "Point", "coordinates": [ -73.076938644999984, -39.625402989999941, 0.0 ] } },
{ "type": "Feature", "properties": { "OBJECTID": 1685.0, "Cod_APR": 14010609.0, "NR": 14.0, "Region": "Región de Los Ríos", "Provincia": "Valdivia", "Comuna": "Mariquina", "Servicio": "COMITÉ", "Nombre": "PUFUDI", "Año": "2009", "Arranques": 135.0, "Estado": "CONCENTRADO", "Fondos": null, "Ben_est": 540.0, "ESTE": 149671.0, "NORTE": 5600454.0, "CLASE_SUEL": 0 }, "geometry": { "type": "Point", "coordinates": [ -73.084141584999941, -39.673926434999942, 0.0 ] } },
{ "type": "Feature", "properties": { "OBJECTID": 1686.0, "Cod_APR": 14010701.0, "NR": 14.0, "Region": "Región de Los Ríos", "Provincia": "Valdivia", "Comuna": "Paillaco", "Servicio": "COMITÉ", "Nombre": "ARCO IRIS", "Año": "1998", "Arranques": 84.0, "Estado": "CONCENTRADO", "Fondos": null, "Ben_est": 336.0, "ESTE": 182557.0, "NORTE": 5551195.0, "CLASE_SUEL": 0 }, "geometry": { "type": "Point", "coordinates": [ -72.725494026999968, -40.129658163999977, 0.0 ] } },
{ "type": "Feature", "properties": { "OBJECTID": 1687.0, "Cod_APR": 14010702.0, "NR": 14.0, "Region": "Región de Los Ríos", "Provincia": "Valdivia", "Comuna": "Paillaco", "Servicio": "COMITÉ", "Nombre": "EL LLOLLY", "Año": "1999", "Arranques": 92.0, "Estado": "CONCENTRADO", "Fondos": null, "Ben_est": 368.0, "ESTE": 191445.0, "NORTE": 5558462.0, "CLASE_SUEL": 0 }, "geometry": { "type": "Point", "coordinates": [ -72.617917567999939, -40.067622828999959, 0.0 ] } },
{ "type": "Feature", "properties": { "OBJECTID": 1688.0, "Cod_APR": 14010703.0, "NR": 14.0, "Region": "Región de Los Ríos", "Provincia": "Valdivia", "Comuna": "Paillaco", "Servicio": "COMITÉ", "Nombre": "PICHIRROPULLI", "Año": "1979", "Arranques": 171.0, "Estado": "CONCENTRADO", "Fondos": null, "Ben_est": 684.0, "ESTE": 168111.0, "NORTE": 5548136.0, "CLASE_SUEL": 0 }, "geometry": { "type": "Point", "coordinates": [ -72.896241977999978, -40.151580782999929, 0.0 ] } },
{ "type": "Feature", "properties": { "OBJECTID": 1689.0, "Cod_APR": 14010801.0, "NR": 14.0, "Region": "Región de Los Ríos", "Provincia": "Valdivia", "Comuna": "Panguipulli", "Servicio": "COMITÉ", "Nombre": "CHOSHUENCO", "Año": "1980", "Arranques": 195.0, "Estado": "CONCENTRADO", "Fondos": null, "Ben_est": 780.0, "ESTE": 236195.0, "NORTE": 5585853.0, "CLASE_SUEL": 0 }, "geometry": { "type": "Point", "coordinates": [ -72.082894456999952, -39.836387787999968, 0.0 ] } },
{ "type": "Feature", "properties": { "OBJECTID": 1690.0, "Cod_APR": 14010802.0, "NR": 14.0, "Region": "Región de Los Ríos", "Provincia": "Valdivia", "Comuna": "Panguipulli", "Servicio": "COMITÉ", "Nombre": "COÑARIPE", "Año": "1981", "Arranques": 1040.0, "Estado": "CONCENTRADO", "Fondos": null, "Ben_est": 4160.0, "ESTE": 241939.0, "NORTE": 5616238.0, "CLASE_SUEL": 0 }, "geometry": { "type": "Point", "coordinates": [ -72.003968942999961, -39.564753048999933, 0.0 ] } },
{ "type": "Feature", "properties": { "OBJECTID": 1691.0, "Cod_APR": 14010803.0, "NR": 14.0, "Region": "Región de Los Ríos", "Provincia": "Valdivia", "Comuna": "Panguipulli", "Servicio": "COMITÉ", "Nombre": "HUELLAHUE", "Año": "1993", "Arranques": 162.0, "Estado": "CONCENTRADO", "Fondos": null, "Ben_est": 648.0, "ESTE": 211502.0, "NORTE": 5610472.0, "CLASE_SUEL": 0 }, "geometry": { "type": "Point", "coordinates": [ -72.360237586999972, -39.60692591399993, 0.0 ] } },
{ "type": "Feature", "properties": { "OBJECTID": 1692.0, "Cod_APR": 14010804.0, "NR": 14.0, "Region": "Región de Los Ríos", "Provincia": "Valdivia", "Comuna": "Panguipulli", "Servicio": "COMITÉ", "Nombre": "LIQUIÑE", "Año": "1979", "Arranques": 328.0, "Estado": "CONCENTRADO", "Fondos": null, "Ben_est": 1312.0, "ESTE": 255225.0, "NORTE": 5596104.0, "CLASE_SUEL": 0 }, "geometry": { "type": "Point", "coordinates": [ -71.856953703999977, -39.749835165999968, 0.0 ] } },
{ "type": "Feature", "properties": { "OBJECTID": 1693.0, "Cod_APR": 14010805.0, "NR": 14.0, "Region": "Región de Los Ríos", "Provincia": "Valdivia", "Comuna": "Panguipulli", "Servicio": "COMITÉ", "Nombre": "MELEFQUEN", "Año": "1983", "Arranques": 282.0, "Estado": "CONCENTRADO", "Fondos": null, "Ben_est": 1128.0, "ESTE": 205314.0, "NORTE": 5611654.0, "CLASE_SUEL": 0 }, "geometry": { "type": "Point", "coordinates": [ -72.431665901999963, -39.594189030999985, 0.0 ] } },
{ "type": "Feature", "properties": { "OBJECTID": 1694.0, "Cod_APR": 14010806.0, "NR": 14.0, "Region": "Región de Los Ríos", "Provincia": "Valdivia", "Comuna": "Panguipulli", "Servicio": "COMITÉ", "Nombre": "NELTUME", "Año": "1996", "Arranques": 680.0, "Estado": "CONCENTRADO", "Fondos": null, "Ben_est": 2720.0, "ESTE": 248811.0, "NORTE": 5584752.0, "CLASE_SUEL": 0 }, "geometry": { "type": "Point", "coordinates": [ -71.936069722999946, -39.85011769099998, 0.0 ] } },
{ "type": "Feature", "properties": { "OBJECTID": 1695.0, "Cod_APR": 14010807.0, "NR": 14.0, "Region": "Región de Los Ríos", "Provincia": "Valdivia", "Comuna": "Panguipulli", "Servicio": "COMITÉ", "Nombre": "ÑANCUL", "Año": "2002", "Arranques": 127.0, "Estado": "CONCENTRADO", "Fondos": null, "Ben_est": 508.0, "ESTE": 207885.0, "NORTE": 5597982.0, "CLASE_SUEL": 0 }, "geometry": { "type": "Point", "coordinates": [ -72.407816526999966, -39.718040360999964, 0.0 ] } },
{ "type": "Feature", "properties": { "OBJECTID": 1696.0, "Cod_APR": 14010809.0, "NR": 14.0, "Region": "Región de Los Ríos", "Provincia": "Valdivia", "Comuna": "Panguipulli", "Servicio": "COMITÉ", "Nombre": "PUERTO FUY", "Año": "2005", "Arranques": 96.0, "Estado": "CONCENTRADO", "Fondos": null, "Ben_est": 384.0, "ESTE": 252328.0, "NORTE": 5582363.0, "CLASE_SUEL": 0 }, "geometry": { "type": "Point", "coordinates": [ -71.89591470199997, -39.872647898999958, 0.0 ] } },
{ "type": "Feature", "properties": { "OBJECTID": 1697.0, "Cod_APR": 14010810.0, "NR": 14.0, "Region": "Región de Los Ríos", "Provincia": "Valdivia", "Comuna": "Panguipulli", "Servicio": "COMITÉ", "Nombre": "PUYEHUE", "Año": "2002", "Arranques": 130.0, "Estado": "CONCENTRADO", "Fondos": null, "Ben_est": 520.0, "ESTE": 209593.0, "NORTE": 5604203.0, "CLASE_SUEL": 0 }, "geometry": { "type": "Point", "coordinates": [ -72.385186675999989, -39.662668356999973, 0.0 ] } },
{ "type": "Feature", "properties": { "OBJECTID": 1698.0, "Cod_APR": 14020101.0, "NR": 14.0, "Region": "Región de Los Ríos", "Provincia": "Ranco", "Comuna": "La Unión", "Servicio": "COMITÉ", "Nombre": "CHOROICO", "Año": "1998", "Arranques": 130.0, "Estado": "CONCENTRADO", "Fondos": null, "Ben_est": 520.0, "ESTE": 165427.0, "NORTE": 5541721.0, "CLASE_SUEL": 0 }, "geometry": { "type": "Point", "coordinates": [ -72.931012732999989, -40.20817692199995, 0.0 ] } },
{ "type": "Feature", "properties": { "OBJECTID": 1699.0, "Cod_APR": 14020102.0, "NR": 14.0, "Region": "Región de Los Ríos", "Provincia": "Ranco", "Comuna": "La Unión", "Servicio": "COMITÉ", "Nombre": "HUAPE  ROY ROY", "Año": "2008", "Arranques": 104.0, "Estado": "CONCENTRADO", "Fondos": null, "Ben_est": 416.0, "ESTE": 180704.0, "NORTE": 5540740.0, "CLASE_SUEL": 0 }, "geometry": { "type": "Point", "coordinates": [ -72.752377955999975, -40.222949480999944, 0.0 ] } },
{ "type": "Feature", "properties": { "OBJECTID": 1700.0, "Cod_APR": 14020103.0, "NR": 14.0, "Region": "Región de Los Ríos", "Provincia": "Ranco", "Comuna": "La Unión", "Servicio": "COMITÉ", "Nombre": "TRAIGUEN", "Año": "2008", "Arranques": 92.0, "Estado": "CONCENTRADO", "Fondos": null, "Ben_est": 368.0, "ESTE": 165248.0, "NORTE": 5532591.0, "CLASE_SUEL": 0 }, "geometry": { "type": "Point", "coordinates": [ -72.937871635999954, -40.290167074999943, 0.0 ] } },
{ "type": "Feature", "properties": { "OBJECTID": 1701.0, "Cod_APR": 14020201.0, "NR": 14.0, "Region": "Región de Los Ríos", "Provincia": "Ranco", "Comuna": "Futrono", "Servicio": "COMITÉ", "Nombre": "CAUNAHUE", "Año": "2005", "Arranques": 100.0, "Estado": "CONCENTRADO", "Fondos": null, "Ben_est": 400.0, "ESTE": 223217.0, "NORTE": 5549834.0, "CLASE_SUEL": 0 }, "geometry": { "type": "Point", "coordinates": [ -72.24967281399995, -40.15626440099993, 0.0 ] } },
{ "type": "Feature", "properties": { "OBJECTID": 1702.0, "Cod_APR": 14020202.0, "NR": 14.0, "Region": "Región de Los Ríos", "Provincia": "Ranco", "Comuna": "Futrono", "Servicio": "COMITÉ", "Nombre": "CURRIÑE-CHABRANCO", "Año": "1999", "Arranques": 527.0, "Estado": "CONCENTRADO", "Fondos": null, "Ben_est": 2108.0, "ESTE": 245068.0, "NORTE": 5542526.0, "CLASE_SUEL": 0 }, "geometry": { "type": "Point", "coordinates": [ -71.996363578999933, -40.228929500999982, 0.0 ] } },
{ "type": "Feature", "properties": { "OBJECTID": 1703.0, "Cod_APR": 14020203.0, "NR": 14.0, "Region": "Región de Los Ríos", "Provincia": "Ranco", "Comuna": "Futrono", "Servicio": "COMITÉ", "Nombre": "DOLLINCO", "Año": "2001", "Arranques": 54.0, "Estado": "CONCENTRADO", "Fondos": null, "Ben_est": 216.0, "ESTE": 201036.0, "NORTE": 5555002.0, "CLASE_SUEL": 0 }, "geometry": { "type": "Point", "coordinates": [ -72.507260097999961, -40.102193477999947, 0.0 ] } },
{ "type": "Feature", "properties": { "OBJECTID": 1704.0, "Cod_APR": 14020204.0, "NR": 14.0, "Region": "Región de Los Ríos", "Provincia": "Ranco", "Comuna": "Futrono", "Servicio": "COMITÉ", "Nombre": "LLIFEN", "Año": "1983", "Arranques": 422.0, "Estado": "CONCENTRADO", "Fondos": null, "Ben_est": 1688.0, "ESTE": 222517.0, "NORTE": 5545339.0, "CLASE_SUEL": 0 }, "geometry": { "type": "Point", "coordinates": [ -72.259815121999964, -40.196465750999948, 0.0 ] } },
{ "type": "Feature", "properties": { "OBJECTID": 1705.0, "Cod_APR": 14020205.0, "NR": 14.0, "Region": "Región de Los Ríos", "Provincia": "Ranco", "Comuna": "Futrono", "Servicio": "COMITÉ", "Nombre": "NONTUELÁ", "Año": "1993", "Arranques": 429.0, "Estado": "CONCENTRADO", "Fondos": null, "Ben_est": 1716.0, "ESTE": 197349.0, "NORTE": 5558365.0, "CLASE_SUEL": 0 }, "geometry": { "type": "Point", "coordinates": [ -72.548863012999959, -40.070635175999939, 0.0 ] } },
{ "type": "Feature", "properties": { "OBJECTID": 1706.0, "Cod_APR": 14020301.0, "NR": 14.0, "Region": "Región de Los Ríos", "Provincia": "Ranco", "Comuna": "Lago Ranco", "Servicio": "COMITÉ", "Nombre": "CALCURRUPE", "Año": "1999", "Arranques": 72.0, "Estado": "CONCENTRADO", "Fondos": null, "Ben_est": 288.0, "ESTE": 223465.0, "NORTE": 5541018.0, "CLASE_SUEL": 0 }, "geometry": { "type": "Point", "coordinates": [ -72.250553823999951, -40.235645837999982, 0.0 ] } },
{ "type": "Feature", "properties": { "OBJECTID": 1707.0, "Cod_APR": 14020302.0, "NR": 14.0, "Region": "Región de Los Ríos", "Provincia": "Ranco", "Comuna": "Lago Ranco", "Servicio": "COMITÉ", "Nombre": "IGNAO", "Año": "1983", "Arranques": 220.0, "Estado": "CONCENTRADO", "Fondos": null, "Ben_est": 880.0, "ESTE": 198129.0, "NORTE": 5529298.0, "CLASE_SUEL": 0 }, "geometry": { "type": "Point", "coordinates": [ -72.553370341999937, -40.332290963999981, 0.0 ] } },
{ "type": "Feature", "properties": { "OBJECTID": 1708.0, "Cod_APR": 14020303.0, "NR": 14.0, "Region": "Región de Los Ríos", "Provincia": "Ranco", "Comuna": "Lago Ranco", "Servicio": "COMITÉ", "Nombre": "PITRIUCO", "Año": "1998", "Arranques": 120.0, "Estado": "CONCENTRADO", "Fondos": null, "Ben_est": 480.0, "ESTE": 192170.0, "NORTE": 5534855.0, "CLASE_SUEL": 0 }, "geometry": { "type": "Point", "coordinates": [ -72.620710760999941, -40.280151669999952, 0.0 ] } },
{ "type": "Feature", "properties": { "OBJECTID": 1709.0, "Cod_APR": 14020304.0, "NR": 14.0, "Region": "Región de Los Ríos", "Provincia": "Ranco", "Comuna": "Lago Ranco", "Servicio": "COMITÉ", "Nombre": "RIÑINAHUE", "Año": "2005", "Arranques": 144.0, "Estado": "CONCENTRADO", "Fondos": null, "Ben_est": 576.0, "ESTE": 227662.0, "NORTE": 5533019.0, "CLASE_SUEL": 0 }, "geometry": { "type": "Point", "coordinates": [ -72.204691484999955, -40.30897347399997, 0.0 ] } },
{ "type": "Feature", "properties": { "OBJECTID": 1710.0, "Cod_APR": 14020401.0, "NR": 14.0, "Region": "Región de Los Ríos", "Provincia": "Ranco", "Comuna": "Río Bueno", "Servicio": "COMITÉ", "Nombre": "CARIMALLIN", "Año": "2003", "Arranques": 153.0, "Estado": "CONCENTRADO", "Fondos": null, "Ben_est": 612.0, "ESTE": 180409.0, "NORTE": 5503872.0, "CLASE_SUEL": 0 }, "geometry": { "type": "Point", "coordinates": [ -72.774320699999976, -40.554269648999934, 0.0 ] } },
{ "type": "Feature", "properties": { "OBJECTID": 1711.0, "Cod_APR": 14020402.0, "NR": 14.0, "Region": "Región de Los Ríos", "Provincia": "Ranco", "Comuna": "Río Bueno", "Servicio": "COMITÉ", "Nombre": "CAYURRUCA", "Año": "1985", "Arranques": 136.0, "Estado": "CONCENTRADO", "Fondos": null, "Ben_est": 544.0, "ESTE": 186229.0, "NORTE": 5531838.0, "CLASE_SUEL": 0 }, "geometry": { "type": "Point", "coordinates": [ -72.691930922999973, -40.305070024999964, 0.0 ] } },
{ "type": "Feature", "properties": { "OBJECTID": 1712.0, "Cod_APR": 14020403.0, "NR": 14.0, "Region": "Región de Los Ríos", "Provincia": "Ranco", "Comuna": "Río Bueno", "Servicio": "COMITÉ", "Nombre": "CHAMPULLI", "Año": "2003", "Arranques": 61.0, "Estado": "CONCENTRADO", "Fondos": null, "Ben_est": 244.0, "ESTE": 186731.0, "NORTE": 5506941.0, "CLASE_SUEL": 0 }, "geometry": { "type": "Point", "coordinates": [ -72.698288325999954, -40.529092501999969, 0.0 ] } },
{ "type": "Feature", "properties": { "OBJECTID": 1713.0, "Cod_APR": 14020404.0, "NR": 14.0, "Region": "Región de Los Ríos", "Provincia": "Ranco", "Comuna": "Río Bueno", "Servicio": "COMITÉ", "Nombre": "CRUCERO", "Año": "1979", "Arranques": 183.0, "Estado": "CONCENTRADO", "Fondos": null, "Ben_est": 732.0, "ESTE": 178701.0, "NORTE": 5518897.0, "CLASE_SUEL": 0 }, "geometry": { "type": "Point", "coordinates": [ -72.786840362999953, -40.418545260999963, 0.0 ] } },
{ "type": "Feature", "properties": { "OBJECTID": 1714.0, "Cod_APR": 14020405.0, "NR": 14.0, "Region": "Región de Los Ríos", "Provincia": "Ranco", "Comuna": "Río Bueno", "Servicio": "COMITÉ", "Nombre": "CUN CUN", "Año": "2002", "Arranques": 65.0, "Estado": "CONCENTRADO", "Fondos": null, "Ben_est": 260.0, "ESTE": 178284.0, "NORTE": 5516695.0, "CLASE_SUEL": 0 }, "geometry": { "type": "Point", "coordinates": [ -72.792858388999946, -40.438178861999972, 0.0 ] } },
{ "type": "Feature", "properties": { "OBJECTID": 1715.0, "Cod_APR": 14020406.0, "NR": 14.0, "Region": "Región de Los Ríos", "Provincia": "Ranco", "Comuna": "Río Bueno", "Servicio": "COMITÉ", "Nombre": "FOLILCO (RÍO BUENO)", "Año": "2003", "Arranques": 42.0, "Estado": "CONCENTRADO", "Fondos": null, "Ben_est": 168.0, "ESTE": 190413.0, "NORTE": 5516581.0, "CLASE_SUEL": 0 }, "geometry": { "type": "Point", "coordinates": [ -72.650200175999942, -40.443804420999982, 0.0 ] } },
{ "type": "Feature", "properties": { "OBJECTID": 1716.0, "Cod_APR": 14020407.0, "NR": 14.0, "Region": "Región de Los Ríos", "Provincia": "Ranco", "Comuna": "Río Bueno", "Servicio": "COMITÉ", "Nombre": "FUTAHUENTE", "Año": "2002", "Arranques": 66.0, "Estado": "CONCENTRADO", "Fondos": null, "Ben_est": 264.0, "ESTE": 186689.0, "NORTE": 5509752.0, "CLASE_SUEL": 0 }, "geometry": { "type": "Point", "coordinates": [ -72.697392724999986, -40.503805200999977, 0.0 ] } },
{ "type": "Feature", "properties": { "OBJECTID": 1717.0, "Cod_APR": 14020408.0, "NR": 14.0, "Region": "Región de Los Ríos", "Provincia": "Ranco", "Comuna": "Río Bueno", "Servicio": "COMITÉ", "Nombre": "LITRAN", "Año": "2001", "Arranques": 108.0, "Estado": "CONCENTRADO", "Fondos": null, "Ben_est": 432.0, "ESTE": 175204.0, "NORTE": 5518609.0, "CLASE_SUEL": 0 }, "geometry": { "type": "Point", "coordinates": [ -72.828116297999941, -40.419777709999948, 0.0 ] } },
{ "type": "Feature", "properties": { "OBJECTID": 1718.0, "Cod_APR": 14020409.0, "NR": 14.0, "Region": "Región de Los Ríos", "Provincia": "Ranco", "Comuna": "Río Bueno", "Servicio": "COMITÉ", "Nombre": "MANTILHUE", "Año": "1996", "Arranques": 171.0, "Estado": "CONCENTRADO", "Fondos": null, "Ben_est": 684.0, "ESTE": 205336.0, "NORTE": 5498356.0, "CLASE_SUEL": 0 }, "geometry": { "type": "Point", "coordinates": [ -72.483049989999984, -40.613109084999962, 0.0 ] } },
{ "type": "Feature", "properties": { "OBJECTID": 1719.0, "Cod_APR": 14020410.0, "NR": 14.0, "Region": "Región de Los Ríos", "Provincia": "Ranco", "Comuna": "Río Bueno", "Servicio": "COMITÉ", "Nombre": "NOLGEHUE", "Año": "2001", "Arranques": 80.0, "Estado": "CONCENTRADO", "Fondos": null, "Ben_est": 320.0, "ESTE": 178606.0, "NORTE": 5511983.0, "CLASE_SUEL": 0 }, "geometry": { "type": "Point", "coordinates": [ -72.791454046999945, -40.480661018999967, 0.0 ] } },
{ "type": "Feature", "properties": { "OBJECTID": 1720.0, "Cod_APR": 14020411.0, "NR": 14.0, "Region": "Región de Los Ríos", "Provincia": "Ranco", "Comuna": "Río Bueno", "Servicio": "COMITÉ", "Nombre": "TRAPI", "Año": "1992", "Arranques": 153.0, "Estado": "CONCENTRADO", "Fondos": null, "Ben_est": 612.0, "ESTE": 184925.0, "NORTE": 5521051.0, "CLASE_SUEL": 0 }, "geometry": { "type": "Point", "coordinates": [ -72.71256584799994, -40.401558358999978, 0.0 ] } },
{ "type": "Feature", "properties": { "OBJECTID": 1721.0, "Cod_APR": 14020412.0, "NR": 14.0, "Region": "Región de Los Ríos", "Provincia": "Ranco", "Comuna": "Río Bueno", "Servicio": "COMITÉ", "Nombre": "TREHUACO", "Año": "2003", "Arranques": 40.0, "Estado": "CONCENTRADO", "Fondos": null, "Ben_est": 160.0, "ESTE": 189285.0, "NORTE": 5498644.0, "CLASE_SUEL": 0 }, "geometry": { "type": "Point", "coordinates": [ -72.672276603999933, -40.604646370999944, 0.0 ] } },
{ "type": "Feature", "properties": { "OBJECTID": 1722.0, "Cod_APR": 14020413.0, "NR": 14.0, "Region": "Región de Los Ríos", "Provincia": "Ranco", "Comuna": "Río Bueno", "Servicio": "COMITÉ", "Nombre": "VIVANCO", "Año": "1979", "Arranques": 71.0, "Estado": "CONCENTRADO", "Fondos": null, "Ben_est": 284.0, "ESTE": 192632.0, "NORTE": 5524604.0, "CLASE_SUEL": 0 }, "geometry": { "type": "Point", "coordinates": [ -72.620214389999944, -40.372491294999975, 0.0 ] } },
{ "type": "Feature", "properties": { "OBJECTID": 1723.0, "Cod_APR": 14020206.0, "NR": 14.0, "Region": "Región de Los Ríos", "Provincia": "Ranco", "Comuna": "Futrono", "Servicio": "COMITÉ", "Nombre": "NONTUELÁ ALTO", "Año": "2013", "Arranques": 38.0, "Estado": "SEMICONCENTRADO", "Fondos": "Sectorial", "Ben_est": 152.0, "ESTE": 204004.0, "NORTE": 5561119.0, "CLASE_SUEL": 0 }, "geometry": { "type": "Point", "coordinates": [ -72.469705691999934, -40.048231118999979, 0.0 ] } },
{ "type": "Feature", "properties": { "OBJECTID": 1724.0, "Cod_APR": 14010406.0, "NR": 14.0, "Region": "Región de Los Ríos", "Provincia": "Valdivia", "Comuna": "Los Lagos", "Servicio": "COMITÉ", "Nombre": "EL SALTO", "Año": "2013", "Arranques": 169.0, "Estado": "SEMICONCENTRADO", "Fondos": "FNDR", "Ben_est": 676.0, "ESTE": 183213.0, "NORTE": 5569369.0, "CLASE_SUEL": 0 }, "geometry": { "type": "Point", "coordinates": [ -72.708931867999979, -39.966507199999967, 0.0 ] } },
{ "type": "Feature", "properties": { "OBJECTID": 1725.0, "Cod_APR": 14010811.0, "NR": 14.0, "Region": "Región de Los Ríos", "Provincia": "Valdivia", "Comuna": "Panguipulli", "Servicio": "COMITÉ", "Nombre": "CHAUQUEN BAJO", "Año": "2012", "Arranques": 196.0, "Estado": "SEMICONCENTRADO", "Fondos": "FNDR", "Ben_est": 784.0, "ESTE": 215582.0, "NORTE": 5602168.0, "CLASE_SUEL": 0 }, "geometry": { "type": "Point", "coordinates": [ -72.316361910999944, -39.682986486999937, 0.0 ] } },
{ "type": "Feature", "properties": { "OBJECTID": 1726.0, "Cod_APR": 14020105.0, "NR": 14.0, "Region": "Región de Los Ríos", "Provincia": "Ranco", "Comuna": "La Unión", "Servicio": "COMITÉ", "Nombre": "AUQUINKO", "Año": "2008", "Arranques": 55.0, "Estado": "CONCENTRADO", "Fondos": "Sectorial", "Ben_est": 220.0, "ESTE": 164293.0, "NORTE": 5538410.0, "CLASE_SUEL": 0 }, "geometry": { "type": "Point", "coordinates": [ -72.946035671999937, -40.237483453999971, 0.0 ] } },
{ "type": "Feature", "properties": { "OBJECTID": 1727.0, "Cod_APR": 14020104.0, "NR": 14.0, "Region": "Región de Los Ríos", "Provincia": "Ranco", "Comuna": "La Unión", "Servicio": "COMITÉ", "Nombre": "MASHUE", "Año": "2013", "Arranques": 131.0, "Estado": "SEMICONCENTRADO", "Fondos": "FNDR", "Ben_est": 524.0, "ESTE": 129602.0, "NORTE": 5529450.0, "CLASE_SUEL": 0 }, "geometry": { "type": "Point", "coordinates": [ -73.357918150999978, -40.303367691999938, 0.0 ] } },
{ "type": "Feature", "properties": { "OBJECTID": 1728.0, "Cod_APR": 14010808.0, "NR": 14.0, "Region": "Región de Los Ríos", "Provincia": "Valdivia", "Comuna": "Los Lagos", "Servicio": "COMITÉ", "Nombre": "PUCURA", "Año": "2002", "Arranques": 148.0, "Estado": "CONCENTRADO", "Fondos": null, "Ben_est": 592.0, "ESTE": 236589.0, "NORTE": 5621936.0, "CLASE_SUEL": 0 }, "geometry": { "type": "Point", "coordinates": [ -72.06390599599996, -39.511858996999933, 0.0 ] } },
{ "type": "Feature", "properties": { "OBJECTID": 1729.0, "Cod_APR": 14010704.0, "NR": 14.0, "Region": "Región de Los Ríos", "Provincia": "Valdivia", "Comuna": "Los Lagos", "Servicio": "COMITÉ", "Nombre": "REUMEN", "Año": "1984", "Arranques": 321.0, "Estado": "CONCENTRADO", "Fondos": null, "Ben_est": 1284.0, "ESTE": 172753.0, "NORTE": 5567595.0, "CLASE_SUEL": 0 }, "geometry": { "type": "Point", "coordinates": [ -72.832034861999944, -39.978474630999983, 0.0 ] } },
{ "type": "Feature", "properties": { "OBJECTID": 1730.0, "Cod_APR": 14010705.0, "NR": 14.0, "Region": "Región de Los Ríos", "Provincia": "Ranco", "Comuna": "Futrono", "Servicio": "COMITÉ", "Nombre": "SANTA FILOMENA", "Año": "2001", "Arranques": 120.0, "Estado": "CONCENTRADO", "Fondos": null, "Ben_est": 480.0, "ESTE": 205366.0, "NORTE": 5555742.0, "CLASE_SUEL": 0 }, "geometry": { "type": "Point", "coordinates": [ -72.456214046999946, -40.097064726999974, 0.0 ] } }
]
}
